{
    "type": "FeatureCollection",
    "features": [
        {
            "type": "Feature",
            "properties": {
                "id": "97290",
                "nombre": "963V13_Urb. San Vicente",
                "tipo": "URBANO"
            },
            "geometry": {
                "type": "Point",
                "coordinates": [
                    -74.08470163344676,
                    4.554428752412959
                ]
            }
        },
        {
            "type": "Feature",
            "properties": {
                "id": "97289",
                "nombre": "962V13_Sidel-Terrazas de Oriente",
                "tipo": "URBANO"
            },
            "geometry": {
                "type": "Point",
                "coordinates": [
                    -74.08470042946188,
                    4.55756276158513
                ]
            }
        },
        {
            "type": "Feature",
            "properties": {
                "id": "97288",
                "nombre": "961V13_Horacio Orjuela",
                "tipo": "URBANO"
            },
            "geometry": {
                "type": "Point",
                "coordinates": [
                    -74.08626965806276,
                    4.556882364440376
                ]
            }
        },
        {
            "type": "Feature",
            "properties": {
                "id": "97226",
                "nombre": "583A12_Br. El Progreso",
                "tipo": "URBANO"
            },
            "geometry": {
                "type": "Point",
                "coordinates": [
                    -74.10120000003592,
                    4.50048997705278
                ]
            }
        },
        {
            "type": "Feature",
            "properties": {
                "id": "97225",
                "nombre": "582A12_Br. El Progreso",
                "tipo": "URBANO"
            },
            "geometry": {
                "type": "Point",
                "coordinates": [
                    -74.10110000003988,
                    4.500519977053101
                ]
            }
        },
        {
            "type": "Feature",
            "properties": {
                "id": "97224",
                "nombre": "071C10_Universidad Distrital",
                "tipo": "URBANO"
            },
            "geometry": {
                "type": "Point",
                "coordinates": [
                    -74.15720000003178,
                    4.5798299767045
                ]
            }
        },
        {
            "type": "Feature",
            "properties": {
                "id": "97223",
                "nombre": "946V12_Br. Alfonso López",
                "tipo": "URBANO"
            },
            "geometry": {
                "type": "Point",
                "coordinates": [
                    -74.10292306833071,
                    4.492516914794803
                ]
            }
        },
        {
            "type": "Feature",
            "properties": {
                "id": "97219",
                "nombre": "581A12_IED Ciudad de Villavicencio",
                "tipo": "URBANO"
            },
            "geometry": {
                "type": "Point",
                "coordinates": [
                    -74.1024000000413,
                    4.494069977083474
                ]
            }
        },
        {
            "type": "Feature",
            "properties": {
                "id": "97213",
                "nombre": "601A03_Br. Fontanar del Río",
                "tipo": "URBANO"
            },
            "geometry": {
                "type": "Point",
                "coordinates": [
                    -74.11518605004397,
                    4.758968195771126
                ]
            }
        },
        {
            "type": "Feature",
            "properties": {
                "id": "97207",
                "nombre": "580A12_Las Piedras",
                "tipo": "URBANO"
            },
            "geometry": {
                "type": "Point",
                "coordinates": [
                    -74.08980000004486,
                    4.483339977122829
                ]
            }
        },
        {
            "type": "Feature",
            "properties": {
                "id": "97175",
                "nombre": "576A12_Pq. Nuevo Milenio I",
                "tipo": "URBANO"
            },
            "geometry": {
                "type": "Point",
                "coordinates": [
                    -74.11820000003723,
                    4.530699976913124
                ]
            }
        },
        {
            "type": "Feature",
            "properties": {
                "id": "97174",
                "nombre": "392A13_Br. Montecarlo",
                "tipo": "URBANO"
            },
            "geometry": {
                "type": "Point",
                "coordinates": [
                    -74.0722510779839,
                    4.570222416395903
                ]
            }
        },
        {
            "type": "Feature",
            "properties": {
                "id": "97173",
                "nombre": "396A13_Br. San Cristóbal Alto",
                "tipo": "URBANO"
            },
            "geometry": {
                "type": "Point",
                "coordinates": [
                    -74.07067502003954,
                    4.567826607676874
                ]
            }
        },
        {
            "type": "Feature",
            "properties": {
                "id": "97172",
                "nombre": "395A13_Br. Montecarlo",
                "tipo": "URBANO"
            },
            "geometry": {
                "type": "Point",
                "coordinates": [
                    -74.07144103004406,
                    4.568814390677057
                ]
            }
        },
        {
            "type": "Feature",
            "properties": {
                "id": "97171",
                "nombre": "393A13_Br. Montecarlo",
                "tipo": "URBANO"
            },
            "geometry": {
                "type": "Point",
                "coordinates": [
                    -74.07196484004652,
                    4.569422575674647
                ]
            }
        },
        {
            "type": "Feature",
            "properties": {
                "id": "97170",
                "nombre": "408A13_Río San Cristóbal",
                "tipo": "URBANO"
            },
            "geometry": {
                "type": "Point",
                "coordinates": [
                    -74.07409542003998,
                    4.5698521256780165
                ]
            }
        },
        {
            "type": "Feature",
            "properties": {
                "id": "97136",
                "nombre": "077A03_Br. Tibabuyes Universal",
                "tipo": "URBANO"
            },
            "geometry": {
                "type": "Point",
                "coordinates": [
                    -74.11179822004128,
                    4.746239382832479
                ]
            }
        },
        {
            "type": "Feature",
            "properties": {
                "id": "97135",
                "nombre": "076A03_IED Tibabuyes Universal",
                "tipo": "URBANO"
            },
            "geometry": {
                "type": "Point",
                "coordinates": [
                    -74.11193519003987,
                    4.746386425830366
                ]
            }
        },
        {
            "type": "Feature",
            "properties": {
                "id": "97134",
                "nombre": "075A03_Br. Tibabuyes Universal",
                "tipo": "URBANO"
            },
            "geometry": {
                "type": "Point",
                "coordinates": [
                    -74.10875203004167,
                    4.745448821828138
                ]
            }
        },
        {
            "type": "Feature",
            "properties": {
                "id": "97121",
                "nombre": "450A04_Gran Granada",
                "tipo": "URBANO"
            },
            "geometry": {
                "type": "Point",
                "coordinates": [
                    -74.12829100004107,
                    4.719728975976294
                ]
            }
        },
        {
            "type": "Feature",
            "properties": {
                "id": "97120",
                "nombre": "449A04_Gran Granada",
                "tipo": "URBANO"
            },
            "geometry": {
                "type": "Point",
                "coordinates": [
                    -74.12949600003736,
                    4.71706997599348
                ]
            }
        },
        {
            "type": "Feature",
            "properties": {
                "id": "97119",
                "nombre": "448A04_Gran Granada",
                "tipo": "URBANO"
            },
            "geometry": {
                "type": "Point",
                "coordinates": [
                    -74.12928300003803,
                    4.717201975991946
                ]
            }
        },
        {
            "type": "Feature",
            "properties": {
                "id": "97109",
                "nombre": "Portal Eldorado 16-5 Gran Granada",
                "tipo": "URBANO"
            },
            "geometry": {
                "type": "Point",
                "coordinates": [
                    -74.12096400268186,
                    4.6815266277997765
                ]
            }
        },
        {
            "type": "Feature",
            "properties": {
                "id": "97104",
                "nombre": "578A12_Bibl. Rural comunitaria Los Soches",
                "tipo": "URBANO"
            },
            "geometry": {
                "type": "Point",
                "coordinates": [
                    -74.09225507279393,
                    4.478256947188657
                ]
            }
        },
        {
            "type": "Feature",
            "properties": {
                "id": "97103",
                "nombre": "577A12_Bibl. Rural comunitaria Los Soches",
                "tipo": "URBANO"
            },
            "geometry": {
                "type": "Point",
                "coordinates": [
                    -74.09210000003772,
                    4.477929977152289
                ]
            }
        },
        {
            "type": "Feature",
            "properties": {
                "id": "97095",
                "nombre": "993V12_Embalse La Regadera",
                "tipo": "URBANO"
            },
            "geometry": {
                "type": "Point",
                "coordinates": [
                    -74.1390871694312,
                    4.398140426047843
                ]
            }
        },
        {
            "type": "Feature",
            "properties": {
                "id": "97061",
                "nombre": "628A09_Br. Olarte",
                "tipo": "URBANO"
            },
            "geometry": {
                "type": "Point",
                "coordinates": [
                    -74.16486500003722,
                    4.600305976613981
                ]
            }
        },
        {
            "type": "Feature",
            "properties": {
                "id": "97060",
                "nombre": "604A09_Br. Olarte",
                "tipo": "URBANO"
            },
            "geometry": {
                "type": "Point",
                "coordinates": [
                    -74.16389589003413,
                    4.602204513595791
                ]
            }
        },
        {
            "type": "Feature",
            "properties": {
                "id": "97032",
                "nombre": "481A13_Br. Buenos Aires II Sector",
                "tipo": "URBANO"
            },
            "geometry": {
                "type": "Point",
                "coordinates": [
                    -74.07953585004087,
                    4.575122076651748
                ]
            }
        },
        {
            "type": "Feature",
            "properties": {
                "id": "97031",
                "nombre": "389A13_Br. Buenos Aires",
                "tipo": "URBANO"
            },
            "geometry": {
                "type": "Point",
                "coordinates": [
                    -74.07919570003979,
                    4.574887756651322
                ]
            }
        },
        {
            "type": "Feature",
            "properties": {
                "id": "97000",
                "nombre": "939V10_Br. Rincon de Venecia II",
                "tipo": "URBANO"
            },
            "geometry": {
                "type": "Point",
                "coordinates": [
                    -74.1513938293695,
                    4.590389041716115
                ]
            }
        },
        {
            "type": "Feature",
            "properties": {
                "id": "96998",
                "nombre": "674A08_Pq.Urb El Paraíso",
                "tipo": "URBANO"
            },
            "geometry": {
                "type": "Point",
                "coordinates": [
                    -74.16958800003304,
                    4.64010497641369
                ]
            }
        },
        {
            "type": "Feature",
            "properties": {
                "id": "96994",
                "nombre": "575A12_Urb. Avenida Caracas",
                "tipo": "URBANO"
            },
            "geometry": {
                "type": "Point",
                "coordinates": [
                    -74.11961600003788,
                    4.55807097677833
                ]
            }
        },
        {
            "type": "Feature",
            "properties": {
                "id": "96980",
                "nombre": "Portal Sur GG520 Terreros",
                "tipo": "URBANO"
            },
            "geometry": {
                "type": "Point",
                "coordinates": [
                    -74.16924100003583,
                    4.597307976631105
                ]
            }
        },
        {
            "type": "Feature",
            "properties": {
                "id": "96978",
                "nombre": "León XIII S-N_Est. León XIII",
                "tipo": "URBANO"
            },
            "geometry": {
                "type": "Point",
                "coordinates": [
                    -74.1924820000327,
                    4.592467976668592
                ]
            }
        },
        {
            "type": "Feature",
            "properties": {
                "id": "96977",
                "nombre": "Terreros_Est. Terreros",
                "tipo": "URBANO"
            },
            "geometry": {
                "type": "Point",
                "coordinates": [
                    -74.2006120768433,
                    4.588327787631513
                ]
            }
        },
        {
            "type": "Feature",
            "properties": {
                "id": "96976",
                "nombre": "León XIII N-S_Est. León XIII",
                "tipo": "URBANO"
            },
            "geometry": {
                "type": "Point",
                "coordinates": [
                    -74.19252000003675,
                    4.592547976671446
                ]
            }
        },
        {
            "type": "Feature",
            "properties": {
                "id": "96966",
                "nombre": "961V08_Br. Tierra Buena",
                "tipo": "URBANO"
            },
            "geometry": {
                "type": "Point",
                "coordinates": [
                    -74.16570660195627,
                    4.641466437199612
                ]
            }
        },
        {
            "type": "Feature",
            "properties": {
                "id": "96955",
                "nombre": "453A13_Horacio Orjuela",
                "tipo": "URBANO"
            },
            "geometry": {
                "type": "Point",
                "coordinates": [
                    -74.08633230003852,
                    4.556910625750379
                ]
            }
        },
        {
            "type": "Feature",
            "properties": {
                "id": "96952",
                "nombre": "Calle 40 Sur N-S",
                "tipo": "URBANO"
            },
            "geometry": {
                "type": "Point",
                "coordinates": [
                    -74.11937800004117,
                    4.576095976689356
                ]
            }
        },
        {
            "type": "Feature",
            "properties": {
                "id": "96951",
                "nombre": "Quiroga N-S",
                "tipo": "URBANO"
            },
            "geometry": {
                "type": "Point",
                "coordinates": [
                    -74.11528900004163,
                    4.576713976683291
                ]
            }
        },
        {
            "type": "Feature",
            "properties": {
                "id": "96950",
                "nombre": "Olaya N-S",
                "tipo": "URBANO"
            },
            "geometry": {
                "type": "Point",
                "coordinates": [
                    -74.10720100003815,
                    4.579110976666794
                ]
            }
        },
        {
            "type": "Feature",
            "properties": {
                "id": "96949",
                "nombre": "Restrepo N-S",
                "tipo": "URBANO"
            },
            "geometry": {
                "type": "Point",
                "coordinates": [
                    -74.10077600004061,
                    4.582329976643001
                ]
            }
        },
        {
            "type": "Feature",
            "properties": {
                "id": "96948",
                "nombre": "Fucha N-S",
                "tipo": "URBANO"
            },
            "geometry": {
                "type": "Point",
                "coordinates": [
                    -74.09896700003874,
                    4.583396976635368
                ]
            }
        },
        {
            "type": "Feature",
            "properties": {
                "id": "96947",
                "nombre": "Nariño N-S",
                "tipo": "URBANO"
            },
            "geometry": {
                "type": "Point",
                "coordinates": [
                    -74.09441500003696,
                    4.586016976618317
                ]
            }
        },
        {
            "type": "Feature",
            "properties": {
                "id": "96946",
                "nombre": "Hortúa N-S",
                "tipo": "URBANO"
            },
            "geometry": {
                "type": "Point",
                "coordinates": [
                    -74.09075900004332,
                    4.590426976592251
                ]
            }
        },
        {
            "type": "Feature",
            "properties": {
                "id": "96945",
                "nombre": "Hospital N-S",
                "tipo": "URBANO"
            },
            "geometry": {
                "type": "Point",
                "coordinates": [
                    -74.086248000041,
                    4.595250976560138
                ]
            }
        },
        {
            "type": "Feature",
            "properties": {
                "id": "96944",
                "nombre": "Hospital S-N",
                "tipo": "URBANO"
            },
            "geometry": {
                "type": "Point",
                "coordinates": [
                    -74.08590000003873,
                    4.5952509765609495
                ]
            }
        },
        {
            "type": "Feature",
            "properties": {
                "id": "96943",
                "nombre": "Hortúa S-N",
                "tipo": "URBANO"
            },
            "geometry": {
                "type": "Point",
                "coordinates": [
                    -74.09062500004443,
                    4.590152976588604
                ]
            }
        },
        {
            "type": "Feature",
            "properties": {
                "id": "96942",
                "nombre": "Nariño S-N",
                "tipo": "URBANO"
            },
            "geometry": {
                "type": "Point",
                "coordinates": [
                    -74.09418700004386,
                    4.585814976614663
                ]
            }
        },
        {
            "type": "Feature",
            "properties": {
                "id": "96941",
                "nombre": "Fucha S-N",
                "tipo": "URBANO"
            },
            "geometry": {
                "type": "Point",
                "coordinates": [
                    -74.09872800003758,
                    4.583246976637415
                ]
            }
        },
        {
            "type": "Feature",
            "properties": {
                "id": "96940",
                "nombre": "Restrepo S-N",
                "tipo": "URBANO"
            },
            "geometry": {
                "type": "Point",
                "coordinates": [
                    -74.10207800004186,
                    4.5813479766491145
                ]
            }
        },
        {
            "type": "Feature",
            "properties": {
                "id": "96939",
                "nombre": "Olaya S-N",
                "tipo": "URBANO"
            },
            "geometry": {
                "type": "Point",
                "coordinates": [
                    -74.1077760000374,
                    4.578561976666518
                ]
            }
        },
        {
            "type": "Feature",
            "properties": {
                "id": "96938",
                "nombre": "Calle 40 Sur S-N",
                "tipo": "URBANO"
            },
            "geometry": {
                "type": "Point",
                "coordinates": [
                    -74.12089100004195,
                    4.575481976694351
                ]
            }
        },
        {
            "type": "Feature",
            "properties": {
                "id": "96926",
                "nombre": "066A00_Estación Bicentenario",
                "tipo": "URBANO"
            },
            "geometry": {
                "type": "Point",
                "coordinates": [
                    -74.08176627006377,
                    4.594662596223184
                ]
            }
        },
        {
            "type": "Feature",
            "properties": {
                "id": "96915",
                "nombre": "941V07_Urb. Rincon de los Angeles",
                "tipo": "URBANO"
            },
            "geometry": {
                "type": "Point",
                "coordinates": [
                    -74.1451108752725,
                    4.631886114490181
                ]
            }
        },
        {
            "type": "Feature",
            "properties": {
                "id": "96910",
                "nombre": "661A03_Santa Rita de Suba",
                "tipo": "URBANO"
            },
            "geometry": {
                "type": "Point",
                "coordinates": [
                    -74.12952200004207,
                    4.744685975857725
                ]
            }
        },
        {
            "type": "Feature",
            "properties": {
                "id": "96909",
                "nombre": "660A03_Villa Cindy",
                "tipo": "URBANO"
            },
            "geometry": {
                "type": "Point",
                "coordinates": [
                    -74.12945000004402,
                    4.744588975856164
                ]
            }
        },
        {
            "type": "Feature",
            "properties": {
                "id": "96907",
                "nombre": "659A03_Costa Rica",
                "tipo": "ALIMENTADOR_V"
            },
            "geometry": {
                "type": "Point",
                "coordinates": [
                    -74.08918200004639,
                    4.726467975902469
                ]
            }
        },
        {
            "type": "Feature",
            "properties": {
                "id": "96906",
                "nombre": "658A03_Costa Rica",
                "tipo": "ALIMENTADOR_V"
            },
            "geometry": {
                "type": "Point",
                "coordinates": [
                    -74.0885940000473,
                    4.728487975893338
                ]
            }
        },
        {
            "type": "Feature",
            "properties": {
                "id": "96903",
                "nombre": "938V10_Rincón de Venecia II Sector",
                "tipo": "URBANO"
            },
            "geometry": {
                "type": "Point",
                "coordinates": [
                    -74.1505248120597,
                    4.589917484809366
                ]
            }
        },
        {
            "type": "Feature",
            "properties": {
                "id": "96902",
                "nombre": "918V01_Villas de la Capilla",
                "tipo": "URBANO"
            },
            "geometry": {
                "type": "Point",
                "coordinates": [
                    -74.01319381885982,
                    4.759090290024037
                ]
            }
        },
        {
            "type": "Feature",
            "properties": {
                "id": "96898",
                "nombre": "596A13_Hsp. San Blas",
                "tipo": "URBANO"
            },
            "geometry": {
                "type": "Point",
                "coordinates": [
                    -74.08373900004452,
                    4.5690449766851815
                ]
            }
        },
        {
            "type": "Feature",
            "properties": {
                "id": "96878",
                "nombre": "482A08_Br. La Camelia",
                "tipo": "URBANO"
            },
            "geometry": {
                "type": "Point",
                "coordinates": [
                    -74.11849662003856,
                    4.613628221505476
                ]
            }
        },
        {
            "type": "Feature",
            "properties": {
                "id": "96877",
                "nombre": "513A08_Br. La Camelia",
                "tipo": "URBANO"
            },
            "geometry": {
                "type": "Point",
                "coordinates": [
                    -74.1158102100413,
                    4.614656489495091
                ]
            }
        },
        {
            "type": "Feature",
            "properties": {
                "id": "96866",
                "nombre": "970V09_Br. Jaqueline",
                "tipo": "URBANO"
            },
            "geometry": {
                "type": "Point",
                "coordinates": [
                    -74.16368528943727,
                    4.608816356249879
                ]
            }
        },
        {
            "type": "Feature",
            "properties": {
                "id": "96859",
                "nombre": "Portal 20 de Julio  Alimentación",
                "tipo": "URBANO"
            },
            "geometry": {
                "type": "Point",
                "coordinates": [
                    -74.09636661773142,
                    4.565845799241746
                ]
            }
        },
        {
            "type": "Feature",
            "properties": {
                "id": "96855",
                "nombre": "097A09_Br. Provivienda",
                "tipo": "URBANO"
            },
            "geometry": {
                "type": "Point",
                "coordinates": [
                    -74.13483278982882,
                    4.613080428891465
                ]
            }
        },
        {
            "type": "Feature",
            "properties": {
                "id": "96748",
                "nombre": "624A00_Gimnasio Moderno",
                "tipo": "URBANO"
            },
            "geometry": {
                "type": "Point",
                "coordinates": [
                    -74.05669497871374,
                    4.658279345237595
                ]
            }
        },
        {
            "type": "Feature",
            "properties": {
                "id": "96747",
                "nombre": "623A00_Universidad Sergio Arboleda",
                "tipo": "URBANO"
            },
            "geometry": {
                "type": "Point",
                "coordinates": [
                    -74.06006149004327,
                    4.660710013206434
                ]
            }
        },
        {
            "type": "Feature",
            "properties": {
                "id": "96745",
                "nombre": "806A00_Br. Eduardo Santos",
                "tipo": "URBANO"
            },
            "geometry": {
                "type": "Point",
                "coordinates": [
                    -74.0898157700383,
                    4.593136381576901
                ]
            }
        },
        {
            "type": "Feature",
            "properties": {
                "id": "96744",
                "nombre": "960V13_Estación Bicentenario",
                "tipo": "URBANO"
            },
            "geometry": {
                "type": "Point",
                "coordinates": [
                    -74.08126402960767,
                    4.593573516305227
                ]
            }
        },
        {
            "type": "Feature",
            "properties": {
                "id": "96743",
                "nombre": "654A03_Pinos de Lombardia",
                "tipo": "ALIMENTADOR_V"
            },
            "geometry": {
                "type": "Point",
                "coordinates": [
                    -74.0958290000469,
                    4.752357975780611
                ]
            }
        },
        {
            "type": "Feature",
            "properties": {
                "id": "96726",
                "nombre": "910V11_Br. Tres Esquinas",
                "tipo": "URBANO"
            },
            "geometry": {
                "type": "Point",
                "coordinates": [
                    -74.16783521638447,
                    4.572649998827687
                ]
            }
        },
        {
            "type": "Feature",
            "properties": {
                "id": "96671",
                "nombre": "950V01_Br. Country Comodoro",
                "tipo": "URBANO"
            },
            "geometry": {
                "type": "Point",
                "coordinates": [
                    -74.03277361160883,
                    4.712293568870768
                ]
            }
        },
        {
            "type": "Feature",
            "properties": {
                "id": "96670",
                "nombre": "928V12_Urb. Rincón de Bolonia",
                "tipo": "URBANO"
            },
            "geometry": {
                "type": "Point",
                "coordinates": [
                    -74.09893191084721,
                    4.510813693727094
                ]
            }
        },
        {
            "type": "Feature",
            "properties": {
                "id": "96663",
                "nombre": "403A11_Olaya Herrera",
                "tipo": "URBANO"
            },
            "geometry": {
                "type": "Point",
                "coordinates": [
                    -74.10664480003858,
                    4.580812326652031
                ]
            }
        },
        {
            "type": "Feature",
            "properties": {
                "id": "96661",
                "nombre": "432A08_Br. Patio Bonito III Sector",
                "tipo": "URBANO"
            },
            "geometry": {
                "type": "Point",
                "coordinates": [
                    -74.16525326003708,
                    4.638213443423977
                ]
            }
        },
        {
            "type": "Feature",
            "properties": {
                "id": "96660",
                "nombre": "437A08_Liceo Cristiano Mi Refugio Perfecto",
                "tipo": "URBANO"
            },
            "geometry": {
                "type": "Point",
                "coordinates": [
                    -74.16356627003601,
                    4.639532866409525
                ]
            }
        },
        {
            "type": "Feature",
            "properties": {
                "id": "96657",
                "nombre": "439A08_Br. Patio Bonito II Sector",
                "tipo": "URBANO"
            },
            "geometry": {
                "type": "Point",
                "coordinates": [
                    -74.16310097264787,
                    4.640752380233124
                ]
            }
        },
        {
            "type": "Feature",
            "properties": {
                "id": "96646",
                "nombre": "Portal Sur  10-6 Perdomo",
                "tipo": "ALIMENTADOR_V"
            },
            "geometry": {
                "type": "Point",
                "coordinates": [
                    -74.16943961749067,
                    4.597308978156677
                ]
            }
        },
        {
            "type": "Feature",
            "properties": {
                "id": "96631",
                "nombre": "688A09_Urb. San Diego",
                "tipo": "URBANO"
            },
            "geometry": {
                "type": "Point",
                "coordinates": [
                    -74.21068300002955,
                    4.612156976581519
                ]
            }
        },
        {
            "type": "Feature",
            "properties": {
                "id": "96630",
                "nombre": "687A09_Urb. San Diego",
                "tipo": "URBANO"
            },
            "geometry": {
                "type": "Point",
                "coordinates": [
                    -74.21152400002998,
                    4.612969976586807
                ]
            }
        },
        {
            "type": "Feature",
            "properties": {
                "id": "96629",
                "nombre": "489A09_Br. Villa Anny I",
                "tipo": "URBANO"
            },
            "geometry": {
                "type": "Point",
                "coordinates": [
                    -74.19919100003538,
                    4.604105976618453
                ]
            }
        },
        {
            "type": "Feature",
            "properties": {
                "id": "96628",
                "nombre": "164A09_Br. San Pablo II Sector",
                "tipo": "URBANO"
            },
            "geometry": {
                "type": "Point",
                "coordinates": [
                    -74.18487865003117,
                    4.598384356633594
                ]
            }
        },
        {
            "type": "Feature",
            "properties": {
                "id": "96616",
                "nombre": "Portal Sur G514 San José",
                "tipo": "URBANO"
            },
            "geometry": {
                "type": "Point",
                "coordinates": [
                    -74.16992940920146,
                    4.597357907557075
                ]
            }
        },
        {
            "type": "Feature",
            "properties": {
                "id": "96607",
                "nombre": "702A01_Br. Cedro Salazar",
                "tipo": "URBANO"
            },
            "geometry": {
                "type": "Point",
                "coordinates": [
                    -74.03069999993454,
                    4.730219975376864
                ]
            }
        },
        {
            "type": "Feature",
            "properties": {
                "id": "96602",
                "nombre": "655A03_Suba Salitre",
                "tipo": "URBANO"
            },
            "geometry": {
                "type": "Point",
                "coordinates": [
                    -74.07815500004209,
                    4.7580649757392415
                ]
            }
        },
        {
            "type": "Feature",
            "properties": {
                "id": "96601",
                "nombre": "656A03_Suba Salitre",
                "tipo": "URBANO"
            },
            "geometry": {
                "type": "Point",
                "coordinates": [
                    -74.07700600004826,
                    4.75804997573775
                ]
            }
        },
        {
            "type": "Feature",
            "properties": {
                "id": "96574",
                "nombre": "378A03_AC 132",
                "tipo": "URBANO"
            },
            "geometry": {
                "type": "Point",
                "coordinates": [
                    -74.10146263004526,
                    4.736276739873578
                ]
            }
        },
        {
            "type": "Feature",
            "properties": {
                "id": "96570",
                "nombre": "917V01_Br. El Codito",
                "tipo": "URBANO"
            },
            "geometry": {
                "type": "Point",
                "coordinates": [
                    -74.02147133112169,
                    4.7625729249276585
                ]
            }
        },
        {
            "type": "Feature",
            "properties": {
                "id": "96568",
                "nombre": "916V01_Br. Tibabita II",
                "tipo": "URBANO"
            },
            "geometry": {
                "type": "Point",
                "coordinates": [
                    -74.01796920073348,
                    4.759550126669308
                ]
            }
        },
        {
            "type": "Feature",
            "properties": {
                "id": "96567",
                "nombre": "915V01_Br. Tibabita II",
                "tipo": "URBANO"
            },
            "geometry": {
                "type": "Point",
                "coordinates": [
                    -74.01791753620759,
                    4.759355746484527
                ]
            }
        },
        {
            "type": "Feature",
            "properties": {
                "id": "96566",
                "nombre": "914V01_Br. Tibabita II",
                "tipo": "URBANO"
            },
            "geometry": {
                "type": "Point",
                "coordinates": [
                    -74.01680009012249,
                    4.761304635291778
                ]
            }
        },
        {
            "type": "Feature",
            "properties": {
                "id": "96565",
                "nombre": "913V01_Br. Tibabita II",
                "tipo": "URBANO"
            },
            "geometry": {
                "type": "Point",
                "coordinates": [
                    -74.01655451326748,
                    4.759639104112489
                ]
            }
        },
        {
            "type": "Feature",
            "properties": {
                "id": "96552",
                "nombre": "982V12_Usme Centro",
                "tipo": "URBANO"
            },
            "geometry": {
                "type": "Point",
                "coordinates": [
                    -74.12837598815113,
                    4.468034252973701
                ]
            }
        },
        {
            "type": "Feature",
            "properties": {
                "id": "96551",
                "nombre": "973V02_Estación Terminal Norte",
                "tipo": "URBANO"
            },
            "geometry": {
                "type": "Point",
                "coordinates": [
                    -74.04390645742058,
                    4.769057039454853
                ]
            }
        },
        {
            "type": "Feature",
            "properties": {
                "id": "96524",
                "nombre": "940V01_Est. Alcalá",
                "tipo": "URBANO"
            },
            "geometry": {
                "type": "Point",
                "coordinates": [
                    -74.05077282185076,
                    4.719628910939789
                ]
            }
        },
        {
            "type": "Feature",
            "properties": {
                "id": "96523",
                "nombre": "908V12_Br. Brisas del Llano",
                "tipo": "URBANO"
            },
            "geometry": {
                "type": "Point",
                "coordinates": [
                    -74.1062015923325,
                    4.486862476131707
                ]
            }
        },
        {
            "type": "Feature",
            "properties": {
                "id": "96522",
                "nombre": "551B01_IED Campestre Monteverde",
                "tipo": "URBANO"
            },
            "geometry": {
                "type": "Point",
                "coordinates": [
                    -74.02128908724296,
                    4.670380581280258
                ]
            }
        },
        {
            "type": "Feature",
            "properties": {
                "id": "96521",
                "nombre": "648B01_Br. San Luis Altos del Cabo",
                "tipo": "URBANO"
            },
            "geometry": {
                "type": "Point",
                "coordinates": [
                    -74.02270000005169,
                    4.671389976103719
                ]
            }
        },
        {
            "type": "Feature",
            "properties": {
                "id": "96520",
                "nombre": "590B01_Br. San Isidro",
                "tipo": "URBANO"
            },
            "geometry": {
                "type": "Point",
                "coordinates": [
                    -74.02280000004599,
                    4.672679976097869
                ]
            }
        },
        {
            "type": "Feature",
            "properties": {
                "id": "96512",
                "nombre": "469A11_Br. Jerusalén las Brisas",
                "tipo": "URBANO"
            },
            "geometry": {
                "type": "Point",
                "coordinates": [
                    -74.16646929003876,
                    4.571253221761054
                ]
            }
        },
        {
            "type": "Feature",
            "properties": {
                "id": "96505",
                "nombre": "863A00_Parador Colombia 86",
                "tipo": "URBANO"
            },
            "geometry": {
                "type": "Point",
                "coordinates": [
                    -74.00586129427855,
                    4.565412760953195
                ]
            }
        },
        {
            "type": "Feature",
            "properties": {
                "id": "96494",
                "nombre": "359A13_Br. Rocio Centro Oriental",
                "tipo": "URBANO"
            },
            "geometry": {
                "type": "Point",
                "coordinates": [
                    -74.06902572004111,
                    4.584130600595545
                ]
            }
        },
        {
            "type": "Feature",
            "properties": {
                "id": "96493",
                "nombre": "303A13_Br. El Consuelo",
                "tipo": "URBANO"
            },
            "geometry": {
                "type": "Point",
                "coordinates": [
                    -74.06982133004722,
                    4.5833555925972345
                ]
            }
        },
        {
            "type": "Feature",
            "properties": {
                "id": "96491",
                "nombre": "299A13_Br. Rocio Oriental",
                "tipo": "URBANO"
            },
            "geometry": {
                "type": "Point",
                "coordinates": [
                    -74.07061837004143,
                    4.581875426606951
                ]
            }
        },
        {
            "type": "Feature",
            "properties": {
                "id": "96468",
                "nombre": "517A13_Instituto Nacional de Cancerología",
                "tipo": "URBANO"
            },
            "geometry": {
                "type": "Point",
                "coordinates": [
                    -74.08455889004381,
                    4.588960294587772
                ]
            }
        },
        {
            "type": "Feature",
            "properties": {
                "id": "96467",
                "nombre": "478A13_Br. Las Cruces",
                "tipo": "URBANO"
            },
            "geometry": {
                "type": "Point",
                "coordinates": [
                    -74.08129284003934,
                    4.5894640125862605
                ]
            }
        },
        {
            "type": "Feature",
            "properties": {
                "id": "96466",
                "nombre": "473A13_Iglesia Las Cruces",
                "tipo": "URBANO"
            },
            "geometry": {
                "type": "Point",
                "coordinates": [
                    -74.08269956004641,
                    4.590324243583755
                ]
            }
        },
        {
            "type": "Feature",
            "properties": {
                "id": "96465",
                "nombre": "357A13_DIAN - Edificio Sendas",
                "tipo": "URBANO"
            },
            "geometry": {
                "type": "Point",
                "coordinates": [
                    -74.07765700004208,
                    4.594059976552837
                ]
            }
        },
        {
            "type": "Feature",
            "properties": {
                "id": "96464",
                "nombre": "335A13_Iglesia de Santa Bárbara",
                "tipo": "URBANO"
            },
            "geometry": {
                "type": "Point",
                "coordinates": [
                    -74.07889200004405,
                    4.591873976570593
                ]
            }
        },
        {
            "type": "Feature",
            "properties": {
                "id": "96460",
                "nombre": "448A13_Br. El Guavio",
                "tipo": "URBANO"
            },
            "geometry": {
                "type": "Point",
                "coordinates": [
                    -74.07064360003969,
                    4.589813379573943
                ]
            }
        },
        {
            "type": "Feature",
            "properties": {
                "id": "96459",
                "nombre": "365A13_Br. El Guavio",
                "tipo": "URBANO"
            },
            "geometry": {
                "type": "Point",
                "coordinates": [
                    -74.06859102003985,
                    4.58945018357312
                ]
            }
        },
        {
            "type": "Feature",
            "properties": {
                "id": "96458",
                "nombre": "363A13_CED Los Pinos",
                "tipo": "URBANO"
            },
            "geometry": {
                "type": "Point",
                "coordinates": [
                    -74.068013120041,
                    4.58678739058532
                ]
            }
        },
        {
            "type": "Feature",
            "properties": {
                "id": "96457",
                "nombre": "360A13_Br. Rocío Centro Oriental",
                "tipo": "URBANO"
            },
            "geometry": {
                "type": "Point",
                "coordinates": [
                    -74.06903398004431,
                    4.58405636059388
                ]
            }
        },
        {
            "type": "Feature",
            "properties": {
                "id": "96456",
                "nombre": "304A13_Br. El Consuelo",
                "tipo": "URBANO"
            },
            "geometry": {
                "type": "Point",
                "coordinates": [
                    -74.06968967004386,
                    4.583231341603788
                ]
            }
        },
        {
            "type": "Feature",
            "properties": {
                "id": "96455",
                "nombre": "300A13_Br. El Consuelo",
                "tipo": "URBANO"
            },
            "geometry": {
                "type": "Point",
                "coordinates": [
                    -74.0703273500476,
                    4.581849640611186
                ]
            }
        },
        {
            "type": "Feature",
            "properties": {
                "id": "96441",
                "nombre": "438A10_Sierra Morena",
                "tipo": "URBANO"
            },
            "geometry": {
                "type": "Point",
                "coordinates": [
                    -74.16396100003873,
                    4.576692976727461
                ]
            }
        },
        {
            "type": "Feature",
            "properties": {
                "id": "96440",
                "nombre": "437A10_Balcón de la Sierra",
                "tipo": "URBANO"
            },
            "geometry": {
                "type": "Point",
                "coordinates": [
                    -74.16354100003132,
                    4.576425976732016
                ]
            }
        },
        {
            "type": "Feature",
            "properties": {
                "id": "96439",
                "nombre": "436A10_Jerusalén La Pradera",
                "tipo": "URBANO"
            },
            "geometry": {
                "type": "Point",
                "coordinates": [
                    -74.16194400003081,
                    4.574243976739485
                ]
            }
        },
        {
            "type": "Feature",
            "properties": {
                "id": "96438",
                "nombre": "435A10_Jerusalén Bellavista",
                "tipo": "URBANO"
            },
            "geometry": {
                "type": "Point",
                "coordinates": [
                    -74.16175200003755,
                    4.57409497674205
                ]
            }
        },
        {
            "type": "Feature",
            "properties": {
                "id": "96431",
                "nombre": "434A10_Manuela Beltrán",
                "tipo": "URBANO"
            },
            "geometry": {
                "type": "Point",
                "coordinates": [
                    -74.15922400003218,
                    4.571924976745658
                ]
            }
        },
        {
            "type": "Feature",
            "properties": {
                "id": "96430",
                "nombre": "433A10_Jerusalén Bellavista",
                "tipo": "URBANO"
            },
            "geometry": {
                "type": "Point",
                "coordinates": [
                    -74.15930600003851,
                    4.571987976747843
                ]
            }
        },
        {
            "type": "Feature",
            "properties": {
                "id": "96429",
                "nombre": "224A11_Br. Candelaria La Nueva",
                "tipo": "URBANO"
            },
            "geometry": {
                "type": "Point",
                "coordinates": [
                    -74.15169521995242,
                    4.5713814448314745
                ]
            }
        },
        {
            "type": "Feature",
            "properties": {
                "id": "96428",
                "nombre": "223A11_Br. Candelaria La Nueva",
                "tipo": "URBANO"
            },
            "geometry": {
                "type": "Point",
                "coordinates": [
                    -74.15182013003886,
                    4.571381592744363
                ]
            }
        },
        {
            "type": "Feature",
            "properties": {
                "id": "96394",
                "nombre": "323A03_Br. Sabana de Tibabuyes",
                "tipo": "URBANO"
            },
            "geometry": {
                "type": "Point",
                "coordinates": [
                    -74.1066288300408,
                    4.747742549815132
                ]
            }
        },
        {
            "type": "Feature",
            "properties": {
                "id": "96341",
                "nombre": "572A12_Bosque de San Carlos",
                "tipo": "URBANO"
            },
            "geometry": {
                "type": "Point",
                "coordinates": [
                    -74.10634500004028,
                    4.572637976699067
                ]
            }
        },
        {
            "type": "Feature",
            "properties": {
                "id": "96340",
                "nombre": "573A12_Bosque de San Carlos",
                "tipo": "URBANO"
            },
            "geometry": {
                "type": "Point",
                "coordinates": [
                    -74.10862900004106,
                    4.57176297669701
                ]
            }
        },
        {
            "type": "Feature",
            "properties": {
                "id": "96339",
                "nombre": "250A04_Br. Quirigua Oriental",
                "tipo": "URBANO"
            },
            "geometry": {
                "type": "Point",
                "coordinates": [
                    -74.10082771003863,
                    4.707778885016089
                ]
            }
        },
        {
            "type": "Feature",
            "properties": {
                "id": "96338",
                "nombre": "190A04_Br. Quirigua Oriental",
                "tipo": "URBANO"
            },
            "geometry": {
                "type": "Point",
                "coordinates": [
                    -74.10203343004015,
                    4.706855827016178
                ]
            }
        },
        {
            "type": "Feature",
            "properties": {
                "id": "96337",
                "nombre": "574A12_Bosque de San Carlos",
                "tipo": "URBANO"
            },
            "geometry": {
                "type": "Point",
                "coordinates": [
                    -74.10928800003627,
                    4.572204976702938
                ]
            }
        },
        {
            "type": "Feature",
            "properties": {
                "id": "96336",
                "nombre": "193A04_Br. Primavera Norte",
                "tipo": "URBANO"
            },
            "geometry": {
                "type": "Point",
                "coordinates": [
                    -74.10436695393801,
                    4.707698746936848
                ]
            }
        },
        {
            "type": "Feature",
            "properties": {
                "id": "96333",
                "nombre": "506B05_Villa Gladys",
                "tipo": "URBANO"
            },
            "geometry": {
                "type": "Point",
                "coordinates": [
                    -74.13661975382162,
                    4.70407217716123
                ]
            }
        },
        {
            "type": "Feature",
            "properties": {
                "id": "96332",
                "nombre": "506A05_Villa Gladys",
                "tipo": "URBANO"
            },
            "geometry": {
                "type": "Point",
                "coordinates": [
                    -74.13608900003736,
                    4.703682976064853
                ]
            }
        },
        {
            "type": "Feature",
            "properties": {
                "id": "96295",
                "nombre": "331A13_Br. Las Cruces",
                "tipo": "URBANO"
            },
            "geometry": {
                "type": "Point",
                "coordinates": [
                    -74.08025574416581,
                    4.589345653378683
                ]
            }
        },
        {
            "type": "Feature",
            "properties": {
                "id": "96287",
                "nombre": "966V06_Br. San Pablo",
                "tipo": "URBANO"
            },
            "geometry": {
                "type": "Point",
                "coordinates": [
                    -74.15734961784278,
                    4.685836160149972
                ]
            }
        },
        {
            "type": "Feature",
            "properties": {
                "id": "96241",
                "nombre": "138A12_Marco Fidel Suárez",
                "tipo": "ALIMENTADOR_V"
            },
            "geometry": {
                "type": "Point",
                "coordinates": [
                    -74.12350207531772,
                    4.570190442302692
                ]
            }
        },
        {
            "type": "Feature",
            "properties": {
                "id": "96240",
                "nombre": "569A12_Granjas de San Pablo",
                "tipo": "ALIMENTADOR_V"
            },
            "geometry": {
                "type": "Point",
                "coordinates": [
                    -74.11382800003655,
                    4.570170976718383
                ]
            }
        },
        {
            "type": "Feature",
            "properties": {
                "id": "96239",
                "nombre": "372A12_Br. Nuevo Progreso",
                "tipo": "ALIMENTADOR_V"
            },
            "geometry": {
                "type": "Point",
                "coordinates": [
                    -74.1032064182516,
                    4.498370601125014
                ]
            }
        },
        {
            "type": "Feature",
            "properties": {
                "id": "96238",
                "nombre": "571A12_Br. Chapinerito",
                "tipo": "URBANO"
            },
            "geometry": {
                "type": "Point",
                "coordinates": [
                    -74.10413400004308,
                    4.504924977029992
                ]
            }
        },
        {
            "type": "Feature",
            "properties": {
                "id": "96237",
                "nombre": "625A11_Urb. Quiroga Etapa VIII",
                "tipo": "ALIMENTADOR_V"
            },
            "geometry": {
                "type": "Point",
                "coordinates": [
                    -74.11745900003656,
                    4.576935976688013
                ]
            }
        },
        {
            "type": "Feature",
            "properties": {
                "id": "96235",
                "nombre": "231B12_Danubio Azul",
                "tipo": "ALIMENTADOR_V"
            },
            "geometry": {
                "type": "Point",
                "coordinates": [
                    -74.11472500004226,
                    4.537865976873007
                ]
            }
        },
        {
            "type": "Feature",
            "properties": {
                "id": "96234",
                "nombre": "570A12_Ciudadela Nuevo Milenio",
                "tipo": "ALIMENTADOR_V"
            },
            "geometry": {
                "type": "Point",
                "coordinates": [
                    -74.11785300003508,
                    4.534793976899212
                ]
            }
        },
        {
            "type": "Feature",
            "properties": {
                "id": "96226",
                "nombre": "461A04_Bolivia Oriental II Etapa",
                "tipo": "URBANO"
            },
            "geometry": {
                "type": "Point",
                "coordinates": [
                    -74.11112800004236,
                    4.717301975977249
                ]
            }
        },
        {
            "type": "Feature",
            "properties": {
                "id": "96225",
                "nombre": "460A04_Bochica IV Etapa",
                "tipo": "URBANO"
            },
            "geometry": {
                "type": "Point",
                "coordinates": [
                    -74.10917700003905,
                    4.715401975987488
                ]
            }
        },
        {
            "type": "Feature",
            "properties": {
                "id": "96224",
                "nombre": "459A04_Bochica I y II Sector",
                "tipo": "URBANO"
            },
            "geometry": {
                "type": "Point",
                "coordinates": [
                    -74.10684500003765,
                    4.713136975994796
                ]
            }
        },
        {
            "type": "Feature",
            "properties": {
                "id": "96198",
                "nombre": "492A05_Gran Granada",
                "tipo": "URBANO"
            },
            "geometry": {
                "type": "Point",
                "coordinates": [
                    -74.13039600003748,
                    4.720649975980793
                ]
            }
        },
        {
            "type": "Feature",
            "properties": {
                "id": "96197",
                "nombre": "451A04_Gran Granada",
                "tipo": "URBANO"
            },
            "geometry": {
                "type": "Point",
                "coordinates": [
                    -74.12852800003866,
                    4.719443975982459
                ]
            }
        },
        {
            "type": "Feature",
            "properties": {
                "id": "96196",
                "nombre": "493A05_Gran Granada",
                "tipo": "URBANO"
            },
            "geometry": {
                "type": "Point",
                "coordinates": [
                    -74.13002000004157,
                    4.720493975978083
                ]
            }
        },
        {
            "type": "Feature",
            "properties": {
                "id": "96184",
                "nombre": "676A09_Bosa El Jardín",
                "tipo": "URBANO"
            },
            "geometry": {
                "type": "Point",
                "coordinates": [
                    -74.20828100003197,
                    4.611975976581813
                ]
            }
        },
        {
            "type": "Feature",
            "properties": {
                "id": "96183",
                "nombre": "864A00_Br. Chicó Norte Sector III",
                "tipo": "URBANO"
            },
            "geometry": {
                "type": "Point",
                "coordinates": [
                    -74.05211400004868,
                    4.680354976092945
                ]
            }
        },
        {
            "type": "Feature",
            "properties": {
                "id": "96175",
                "nombre": "984V03_Chorrillos",
                "tipo": "URBANO"
            },
            "geometry": {
                "type": "Point",
                "coordinates": [
                    -74.09991918063142,
                    4.78541896963645
                ]
            }
        },
        {
            "type": "Feature",
            "properties": {
                "id": "96163",
                "nombre": "462A06_Belén Fontibón",
                "tipo": "ALIMENTADOR_V"
            },
            "geometry": {
                "type": "Point",
                "coordinates": [
                    -74.14900300003285,
                    4.679274976202714
                ]
            }
        },
        {
            "type": "Feature",
            "properties": {
                "id": "96162",
                "nombre": "460A06_La Felicidad",
                "tipo": "ALIMENTADOR_V"
            },
            "geometry": {
                "type": "Point",
                "coordinates": [
                    -74.12813700003646,
                    4.655513976299408
                ]
            }
        },
        {
            "type": "Feature",
            "properties": {
                "id": "96161",
                "nombre": "459A06_La Felicidad",
                "tipo": "ALIMENTADOR_V"
            },
            "geometry": {
                "type": "Point",
                "coordinates": [
                    -74.12864000003442,
                    4.657293976289565
                ]
            }
        },
        {
            "type": "Feature",
            "properties": {
                "id": "96160",
                "nombre": "458A06_La Felicidad",
                "tipo": "ALIMENTADOR_V"
            },
            "geometry": {
                "type": "Point",
                "coordinates": [
                    -74.12980500003987,
                    4.655872976298516
                ]
            }
        },
        {
            "type": "Feature",
            "properties": {
                "id": "96159",
                "nombre": "457A06_El Tintal A.S.D.",
                "tipo": "ALIMENTADOR_V"
            },
            "geometry": {
                "type": "Point",
                "coordinates": [
                    -74.1274060000411,
                    4.653380976307933
                ]
            }
        },
        {
            "type": "Feature",
            "properties": {
                "id": "96158",
                "nombre": "456A06_CC Multiplaza",
                "tipo": "ALIMENTADOR_V"
            },
            "geometry": {
                "type": "Point",
                "coordinates": [
                    -74.12421100003748,
                    4.652905976313023
                ]
            }
        },
        {
            "type": "Feature",
            "properties": {
                "id": "96157",
                "nombre": "454A06_Tierra Firme",
                "tipo": "ALIMENTADOR_V"
            },
            "geometry": {
                "type": "Point",
                "coordinates": [
                    -74.12592300004304,
                    4.67535897619679
                ]
            }
        },
        {
            "type": "Feature",
            "properties": {
                "id": "96156",
                "nombre": "453A06_San Pablo Jericó",
                "tipo": "ALIMENTADOR_V"
            },
            "geometry": {
                "type": "Point",
                "coordinates": [
                    -74.15973200003793,
                    4.690426976159035
                ]
            }
        },
        {
            "type": "Feature",
            "properties": {
                "id": "96155",
                "nombre": "371A06_Br. Ferrocaja",
                "tipo": "ALIMENTADOR_V"
            },
            "geometry": {
                "type": "Point",
                "coordinates": [
                    -74.1220770300383,
                    4.679476048175026
                ]
            }
        },
        {
            "type": "Feature",
            "properties": {
                "id": "96154",
                "nombre": "369A06_Br. Puerta de Teja",
                "tipo": "ALIMENTADOR_V"
            },
            "geometry": {
                "type": "Point",
                "coordinates": [
                    -74.12286401004367,
                    4.681646355163678
                ]
            }
        },
        {
            "type": "Feature",
            "properties": {
                "id": "96153",
                "nombre": "306A06_Villa Carmenza",
                "tipo": "ALIMENTADOR_V"
            },
            "geometry": {
                "type": "Point",
                "coordinates": [
                    -74.15039275539353,
                    4.681142177544715
                ]
            }
        },
        {
            "type": "Feature",
            "properties": {
                "id": "96152",
                "nombre": "304A06_Belen",
                "tipo": "ALIMENTADOR_V"
            },
            "geometry": {
                "type": "Point",
                "coordinates": [
                    -74.14882206439421,
                    4.679221863962551
                ]
            }
        },
        {
            "type": "Feature",
            "properties": {
                "id": "96151",
                "nombre": "240A06_Hsp. Fontibón",
                "tipo": "ALIMENTADOR_V"
            },
            "geometry": {
                "type": "Point",
                "coordinates": [
                    -74.14703551003603,
                    4.67333145122826
                ]
            }
        },
        {
            "type": "Feature",
            "properties": {
                "id": "96150",
                "nombre": "210A06_Br. Puente Grande",
                "tipo": "URBANO"
            },
            "geometry": {
                "type": "Point",
                "coordinates": [
                    -74.16731500003249,
                    4.695244976140119
                ]
            }
        },
        {
            "type": "Feature",
            "properties": {
                "id": "96124",
                "nombre": "414A07_Urb. La Estancia",
                "tipo": "URBANO"
            },
            "geometry": {
                "type": "Point",
                "coordinates": [
                    -74.16446500003622,
                    4.680280976206793
                ]
            }
        },
        {
            "type": "Feature",
            "properties": {
                "id": "96123",
                "nombre": "014A07_Br. Sabana Grande",
                "tipo": "URBANO"
            },
            "geometry": {
                "type": "Point",
                "coordinates": [
                    -74.15225276003532,
                    4.671378952246092
                ]
            }
        },
        {
            "type": "Feature",
            "properties": {
                "id": "96122",
                "nombre": "208A06_Br. La Laguna Fontibón",
                "tipo": "URBANO"
            },
            "geometry": {
                "type": "Point",
                "coordinates": [
                    -74.15052217003921,
                    4.669494825254942
                ]
            }
        },
        {
            "type": "Feature",
            "properties": {
                "id": "96121",
                "nombre": "237A06_Br. La Laguna Fontibón",
                "tipo": "URBANO"
            },
            "geometry": {
                "type": "Point",
                "coordinates": [
                    -74.14855032003479,
                    4.671084202246863
                ]
            }
        },
        {
            "type": "Feature",
            "properties": {
                "id": "96120",
                "nombre": "108A06_Urb. Villas del Pinar",
                "tipo": "URBANO"
            },
            "geometry": {
                "type": "Point",
                "coordinates": [
                    -74.1262224500419,
                    4.673264437211348
                ]
            }
        },
        {
            "type": "Feature",
            "properties": {
                "id": "96119",
                "nombre": "150A06_Br. Capellanía",
                "tipo": "URBANO"
            },
            "geometry": {
                "type": "Point",
                "coordinates": [
                    -74.12640992003544,
                    4.673112214209104
                ]
            }
        },
        {
            "type": "Feature",
            "properties": {
                "id": "96118",
                "nombre": "188A06_Br. Tierra Firme",
                "tipo": "URBANO"
            },
            "geometry": {
                "type": "Point",
                "coordinates": [
                    -74.12917470003731,
                    4.6760960271984295
                ]
            }
        },
        {
            "type": "Feature",
            "properties": {
                "id": "96117",
                "nombre": "046A06_Pq. Empresarial La Cofradía",
                "tipo": "URBANO"
            },
            "geometry": {
                "type": "Point",
                "coordinates": [
                    -74.13202294003948,
                    4.6791867301855214
                ]
            }
        },
        {
            "type": "Feature",
            "properties": {
                "id": "96116",
                "nombre": "217A06_Br. Puente Grande",
                "tipo": "ALIMENTADOR_V"
            },
            "geometry": {
                "type": "Point",
                "coordinates": [
                    -74.16704364003971,
                    4.697323470131102
                ]
            }
        },
        {
            "type": "Feature",
            "properties": {
                "id": "96115",
                "nombre": "088A06_Br. El Tintal Central",
                "tipo": "URBANO"
            },
            "geometry": {
                "type": "Point",
                "coordinates": [
                    -74.13382030003469,
                    4.6689705342361885
                ]
            }
        },
        {
            "type": "Feature",
            "properties": {
                "id": "96114",
                "nombre": "416A07_Praderas de Fontibón",
                "tipo": "URBANO"
            },
            "geometry": {
                "type": "Point",
                "coordinates": [
                    -74.16939500003885,
                    4.680046976214378
                ]
            }
        },
        {
            "type": "Feature",
            "properties": {
                "id": "96113",
                "nombre": "415A07_Pq. Residencial Solsticio",
                "tipo": "URBANO"
            },
            "geometry": {
                "type": "Point",
                "coordinates": [
                    -74.16595800003847,
                    4.680785976211092
                ]
            }
        },
        {
            "type": "Feature",
            "properties": {
                "id": "96111",
                "nombre": "230A06_Urb. Batavia",
                "tipo": "URBANO"
            },
            "geometry": {
                "type": "Point",
                "coordinates": [
                    -74.15196290003661,
                    4.685789547167966
                ]
            }
        },
        {
            "type": "Feature",
            "properties": {
                "id": "96100",
                "nombre": "246A10_Br. Fátima",
                "tipo": "URBANO"
            },
            "geometry": {
                "type": "Point",
                "coordinates": [
                    -74.14021503931147,
                    4.588706239195149
                ]
            }
        },
        {
            "type": "Feature",
            "properties": {
                "id": "96088",
                "nombre": "595A12_Los Soches I",
                "tipo": "URBANO"
            },
            "geometry": {
                "type": "Point",
                "coordinates": [
                    -74.09183993807645,
                    4.478736815627737
                ]
            }
        },
        {
            "type": "Feature",
            "properties": {
                "id": "96039",
                "nombre": "942V07_Br. El Recodo",
                "tipo": "URBANO"
            },
            "geometry": {
                "type": "Point",
                "coordinates": [
                    -74.17031806098237,
                    4.679274688110023
                ]
            }
        },
        {
            "type": "Feature",
            "properties": {
                "id": "96012",
                "nombre": "Portal Tunal  Alimentación Plataforma 1",
                "tipo": "URBANO"
            },
            "geometry": {
                "type": "Point",
                "coordinates": [
                    -74.13952351583853,
                    4.570497677613943
                ]
            }
        },
        {
            "type": "Feature",
            "properties": {
                "id": "95963",
                "nombre": "640A01_Estación Mazurén",
                "tipo": "URBANO"
            },
            "geometry": {
                "type": "Point",
                "coordinates": [
                    -74.0486891660095,
                    4.735410041918387
                ]
            }
        },
        {
            "type": "Feature",
            "properties": {
                "id": "95918",
                "nombre": "Portal Tunal 6-3 Sierra Morena",
                "tipo": "URBANO"
            },
            "geometry": {
                "type": "Point",
                "coordinates": [
                    -74.13983879466642,
                    4.571824115779917
                ]
            }
        },
        {
            "type": "Feature",
            "properties": {
                "id": "95881",
                "nombre": "275A04_Urbanización San Cayetano",
                "tipo": "URBANO"
            },
            "geometry": {
                "type": "Point",
                "coordinates": [
                    -74.10362403785221,
                    4.701753236907016
                ]
            }
        },
        {
            "type": "Feature",
            "properties": {
                "id": "95880",
                "nombre": "274A04_Conjunto Residencial Afidro",
                "tipo": "URBANO"
            },
            "geometry": {
                "type": "Point",
                "coordinates": [
                    -74.10522203773098,
                    4.703323236931186
                ]
            }
        },
        {
            "type": "Feature",
            "properties": {
                "id": "95879",
                "nombre": "273A04_Br. París",
                "tipo": "URBANO"
            },
            "geometry": {
                "type": "Point",
                "coordinates": [
                    -74.10761703755887,
                    4.705639236979502
                ]
            }
        },
        {
            "type": "Feature",
            "properties": {
                "id": "95878",
                "nombre": "686A09_Valle del Sol Bosa",
                "tipo": "URBANO"
            },
            "geometry": {
                "type": "Point",
                "coordinates": [
                    -74.21064400003573,
                    4.623721976527129
                ]
            }
        },
        {
            "type": "Feature",
            "properties": {
                "id": "95877",
                "nombre": "685A09_Valle del Sol Bosa",
                "tipo": "URBANO"
            },
            "geometry": {
                "type": "Point",
                "coordinates": [
                    -74.21041900003497,
                    4.623423976531184
                ]
            }
        },
        {
            "type": "Feature",
            "properties": {
                "id": "95876",
                "nombre": "684A09_Sauce Bosa",
                "tipo": "URBANO"
            },
            "geometry": {
                "type": "Point",
                "coordinates": [
                    -74.21004800003492,
                    4.625249976517478
                ]
            }
        },
        {
            "type": "Feature",
            "properties": {
                "id": "95875",
                "nombre": "683A09_Sauce Bosa",
                "tipo": "URBANO"
            },
            "geometry": {
                "type": "Point",
                "coordinates": [
                    -74.21027100003248,
                    4.625032976523315
                ]
            }
        },
        {
            "type": "Feature",
            "properties": {
                "id": "95874",
                "nombre": "682A09_Alcaparro Bosa",
                "tipo": "URBANO"
            },
            "geometry": {
                "type": "Point",
                "coordinates": [
                    -74.20846000002899,
                    4.627001976514643
                ]
            }
        },
        {
            "type": "Feature",
            "properties": {
                "id": "95873",
                "nombre": "681A09_Alcaparro Bosa",
                "tipo": "URBANO"
            },
            "geometry": {
                "type": "Point",
                "coordinates": [
                    -74.20814700003184,
                    4.626616976516115
                ]
            }
        },
        {
            "type": "Feature",
            "properties": {
                "id": "95803",
                "nombre": "014B12_Instituto Los Ángeles",
                "tipo": "URBANO"
            },
            "geometry": {
                "type": "Point",
                "coordinates": [
                    -74.10513778602305,
                    4.548172691761913
                ]
            }
        },
        {
            "type": "Feature",
            "properties": {
                "id": "95791",
                "nombre": "698A01_Br. La Liberia",
                "tipo": "URBANO"
            },
            "geometry": {
                "type": "Point",
                "coordinates": [
                    -74.03690000005123,
                    4.7335399758038
                ]
            }
        },
        {
            "type": "Feature",
            "properties": {
                "id": "95790",
                "nombre": "697A01_Br.Parques de Lorena",
                "tipo": "URBANO"
            },
            "geometry": {
                "type": "Point",
                "coordinates": [
                    -74.03480000005393,
                    4.732209975810325
                ]
            }
        },
        {
            "type": "Feature",
            "properties": {
                "id": "95789",
                "nombre": "699A01_Br.Parques de Lorena",
                "tipo": "URBANO"
            },
            "geometry": {
                "type": "Point",
                "coordinates": [
                    -74.03760000005306,
                    4.733539975807678
                ]
            }
        },
        {
            "type": "Feature",
            "properties": {
                "id": "95788",
                "nombre": "696A01_Br. La Liberia",
                "tipo": "URBANO"
            },
            "geometry": {
                "type": "Point",
                "coordinates": [
                    -74.0342000000495,
                    4.732299975809688
                ]
            }
        },
        {
            "type": "Feature",
            "properties": {
                "id": "95717",
                "nombre": "610A11_Pescadero",
                "tipo": "URBANO"
            },
            "geometry": {
                "type": "Point",
                "coordinates": [
                    -74.15853660202589,
                    4.54493880752874
                ]
            }
        },
        {
            "type": "Feature",
            "properties": {
                "id": "95701",
                "nombre": "534B09_Br. San Bernardino XIX",
                "tipo": "URBANO"
            },
            "geometry": {
                "type": "Point",
                "coordinates": [
                    -74.20502067036522,
                    4.6301366373633694
                ]
            }
        },
        {
            "type": "Feature",
            "properties": {
                "id": "95696",
                "nombre": "432A10_Rincón de Galicia",
                "tipo": "URBANO"
            },
            "geometry": {
                "type": "Point",
                "coordinates": [
                    -74.17699743846275,
                    4.587487134503673
                ]
            }
        },
        {
            "type": "Feature",
            "properties": {
                "id": "95688",
                "nombre": "528A12_Pq. Nuevo Milenio I",
                "tipo": "URBANO"
            },
            "geometry": {
                "type": "Point",
                "coordinates": [
                    -74.11821100004171,
                    4.530703976920356
                ]
            }
        },
        {
            "type": "Feature",
            "properties": {
                "id": "95668",
                "nombre": "175A10_Autopista Sur",
                "tipo": "ALIMENTADOR_V"
            },
            "geometry": {
                "type": "Point",
                "coordinates": [
                    -74.17863988003117,
                    4.59633542564082
                ]
            }
        },
        {
            "type": "Feature",
            "properties": {
                "id": "95667",
                "nombre": "426A10_Balmoral III",
                "tipo": "ALIMENTADOR_V"
            },
            "geometry": {
                "type": "Point",
                "coordinates": [
                    -74.16394300003542,
                    4.594054976637758
                ]
            }
        },
        {
            "type": "Feature",
            "properties": {
                "id": "95665",
                "nombre": "224A03_Br. El Edén",
                "tipo": "URBANO"
            },
            "geometry": {
                "type": "Point",
                "coordinates": [
                    -74.07389899030876,
                    4.689346938286191
                ]
            }
        },
        {
            "type": "Feature",
            "properties": {
                "id": "95664",
                "nombre": "452A06_Br. Santa Cecilia",
                "tipo": "URBANO"
            },
            "geometry": {
                "type": "Point",
                "coordinates": [
                    -74.1209000000383,
                    4.6708899762157925
                ]
            }
        },
        {
            "type": "Feature",
            "properties": {
                "id": "95663",
                "nombre": "430A10_Br. Sierra Morena TV 73G",
                "tipo": "URBANO"
            },
            "geometry": {
                "type": "Point",
                "coordinates": [
                    -74.16849500003494,
                    4.579034976723413
                ]
            }
        },
        {
            "type": "Feature",
            "properties": {
                "id": "95662",
                "nombre": "161A10_Policlínico Comunitario Inglés",
                "tipo": "URBANO"
            },
            "geometry": {
                "type": "Point",
                "coordinates": [
                    -74.12534952120266,
                    4.583087423421462
                ]
            }
        },
        {
            "type": "Feature",
            "properties": {
                "id": "95660",
                "nombre": "184A00_Federación Colombiana de Fútbol",
                "tipo": "URBANO"
            },
            "geometry": {
                "type": "Point",
                "coordinates": [
                    -74.07161912299675,
                    4.621258065917307
                ]
            }
        },
        {
            "type": "Feature",
            "properties": {
                "id": "95659",
                "nombre": "429A10_IED Rafael Uribe Uribe",
                "tipo": "URBANO"
            },
            "geometry": {
                "type": "Point",
                "coordinates": [
                    -74.12771700003675,
                    4.579273976685459
                ]
            }
        },
        {
            "type": "Feature",
            "properties": {
                "id": "95658",
                "nombre": "196A10_Br. Ismael Perdomo",
                "tipo": "URBANO"
            },
            "geometry": {
                "type": "Point",
                "coordinates": [
                    -74.16809711737935,
                    4.58681107688499
                ]
            }
        },
        {
            "type": "Feature",
            "properties": {
                "id": "95657",
                "nombre": "428A10_Br. Sierra Morena TV 73G",
                "tipo": "URBANO"
            },
            "geometry": {
                "type": "Point",
                "coordinates": [
                    -74.16844500003032,
                    4.5791449767219214
                ]
            }
        },
        {
            "type": "Feature",
            "properties": {
                "id": "95656",
                "nombre": "431A10_Br. Sierra Morena",
                "tipo": "URBANO"
            },
            "geometry": {
                "type": "Point",
                "coordinates": [
                    -74.17207869075325,
                    4.576981750186701
                ]
            }
        },
        {
            "type": "Feature",
            "properties": {
                "id": "95613",
                "nombre": "587A00_Br. La Aurora",
                "tipo": "URBANO"
            },
            "geometry": {
                "type": "Point",
                "coordinates": [
                    -74.06835715491827,
                    4.667233908505416
                ]
            }
        },
        {
            "type": "Feature",
            "properties": {
                "id": "95612",
                "nombre": "588A00_Urb. Santa Sofía",
                "tipo": "URBANO"
            },
            "geometry": {
                "type": "Point",
                "coordinates": [
                    -74.0659197964209,
                    4.670051006973212
                ]
            }
        },
        {
            "type": "Feature",
            "properties": {
                "id": "95605",
                "nombre": "455A06_Ciudad Salitre Occidental",
                "tipo": "ALIMENTADOR_V"
            },
            "geometry": {
                "type": "Point",
                "coordinates": [
                    -74.10538400004037,
                    4.654556976284423
                ]
            }
        },
        {
            "type": "Feature",
            "properties": {
                "id": "95587",
                "nombre": "151A06_Iglesia San José de Fontibón",
                "tipo": "URBANO"
            },
            "geometry": {
                "type": "Point",
                "coordinates": [
                    -74.13355112361172,
                    4.680785692846095
                ]
            }
        },
        {
            "type": "Feature",
            "properties": {
                "id": "95586",
                "nombre": "692A01_Br. San Antonio Norte",
                "tipo": "URBANO"
            },
            "geometry": {
                "type": "Point",
                "coordinates": [
                    -74.03109700004954,
                    4.758893975676583
                ]
            }
        },
        {
            "type": "Feature",
            "properties": {
                "id": "95585",
                "nombre": "689A01_Br. San Antonio Norte",
                "tipo": "URBANO"
            },
            "geometry": {
                "type": "Point",
                "coordinates": [
                    -74.02929400004825,
                    4.757239975677447
                ]
            }
        },
        {
            "type": "Feature",
            "properties": {
                "id": "95584",
                "nombre": "688A01_Codabas",
                "tipo": "URBANO"
            },
            "geometry": {
                "type": "Point",
                "coordinates": [
                    -74.02588600005228,
                    4.75623097568071
                ]
            }
        },
        {
            "type": "Feature",
            "properties": {
                "id": "95555",
                "nombre": "550A05_Maranta",
                "tipo": "URBANO"
            },
            "geometry": {
                "type": "Point",
                "coordinates": [
                    -74.14582263168073,
                    4.711902405098362
                ]
            }
        },
        {
            "type": "Feature",
            "properties": {
                "id": "95551",
                "nombre": "300A02_Urb. Versalles",
                "tipo": "URBANO"
            },
            "geometry": {
                "type": "Point",
                "coordinates": [
                    -74.05953338256232,
                    4.739074599624287
                ]
            }
        },
        {
            "type": "Feature",
            "properties": {
                "id": "95550",
                "nombre": "298A02_Br. Cantalejo",
                "tipo": "URBANO"
            },
            "geometry": {
                "type": "Point",
                "coordinates": [
                    -74.05860677678754,
                    4.741425253153208
                ]
            }
        },
        {
            "type": "Feature",
            "properties": {
                "id": "95549",
                "nombre": "291A00_Br. Chicó Norte III Sector",
                "tipo": "URBANO"
            },
            "geometry": {
                "type": "Point",
                "coordinates": [
                    -74.0536483562183,
                    4.681456828579456
                ]
            }
        },
        {
            "type": "Feature",
            "properties": {
                "id": "95548",
                "nombre": "289A00_Br. Chicó Norte",
                "tipo": "URBANO"
            },
            "geometry": {
                "type": "Point",
                "coordinates": [
                    -74.05642372801684,
                    4.679867021905394
                ]
            }
        },
        {
            "type": "Feature",
            "properties": {
                "id": "95526",
                "nombre": "176A11_Br. Arborizadora Alta",
                "tipo": "URBANO"
            },
            "geometry": {
                "type": "Point",
                "coordinates": [
                    -74.16656021419315,
                    4.5668038702951295
                ]
            }
        },
        {
            "type": "Feature",
            "properties": {
                "id": "95523",
                "nombre": "622A00_Br. Chicó Norte III Sector",
                "tipo": "URBANO"
            },
            "geometry": {
                "type": "Point",
                "coordinates": [
                    -74.0508738791253,
                    4.683537645841713
                ]
            }
        },
        {
            "type": "Feature",
            "properties": {
                "id": "95478",
                "nombre": "427A10_Br. Santa Viviana",
                "tipo": "URBANO"
            },
            "geometry": {
                "type": "Point",
                "coordinates": [
                    -74.17223163715505,
                    4.576994876500801
                ]
            }
        },
        {
            "type": "Feature",
            "properties": {
                "id": "95477",
                "nombre": "265A10_Br. La Fragua",
                "tipo": "URBANO"
            },
            "geometry": {
                "type": "Point",
                "coordinates": [
                    -74.10905657827752,
                    4.595287239548009
                ]
            }
        },
        {
            "type": "Feature",
            "properties": {
                "id": "95476",
                "nombre": "264A10_Br. La Fragua",
                "tipo": "URBANO"
            },
            "geometry": {
                "type": "Point",
                "coordinates": [
                    -74.10713363486072,
                    4.592617516256171
                ]
            }
        },
        {
            "type": "Feature",
            "properties": {
                "id": "95474",
                "nombre": "Portal Suba 11-10 Bilbao",
                "tipo": "ALIMENTADOR_V"
            },
            "geometry": {
                "type": "Point",
                "coordinates": [
                    -74.09441841026704,
                    4.747983110688205
                ]
            }
        },
        {
            "type": "Feature",
            "properties": {
                "id": "95473",
                "nombre": "Portal Suba 11-9 Lisboa",
                "tipo": "ALIMENTADOR_V"
            },
            "geometry": {
                "type": "Point",
                "coordinates": [
                    -74.09393283547332,
                    4.745851404925004
                ]
            }
        },
        {
            "type": "Feature",
            "properties": {
                "id": "95471",
                "nombre": "Portal Suba 11-8 La Gaitana",
                "tipo": "ALIMENTADOR_V"
            },
            "geometry": {
                "type": "Point",
                "coordinates": [
                    -74.09398370588833,
                    4.746026500380356
                ]
            }
        },
        {
            "type": "Feature",
            "properties": {
                "id": "95470",
                "nombre": "Portal Suba 11-7 Pinar",
                "tipo": "ALIMENTADOR_V"
            },
            "geometry": {
                "type": "Point",
                "coordinates": [
                    -74.09405381901162,
                    4.746310992125956
                ]
            }
        },
        {
            "type": "Feature",
            "properties": {
                "id": "95469",
                "nombre": "Portal Suba 11-6 Las Mercedes",
                "tipo": "ALIMENTADOR_V"
            },
            "geometry": {
                "type": "Point",
                "coordinates": [
                    -74.09411509995243,
                    4.746539345223912
                ]
            }
        },
        {
            "type": "Feature",
            "properties": {
                "id": "95468",
                "nombre": "Portal Suba 11-5 Av. Cali",
                "tipo": "ALIMENTADOR_V"
            },
            "geometry": {
                "type": "Point",
                "coordinates": [
                    -74.09416660911394,
                    4.746804879620224
                ]
            }
        },
        {
            "type": "Feature",
            "properties": {
                "id": "95467",
                "nombre": "Portal Suba 11-4 Aures",
                "tipo": "ALIMENTADOR_V"
            },
            "geometry": {
                "type": "Point",
                "coordinates": [
                    -74.09422853886365,
                    4.747057741303705
                ]
            }
        },
        {
            "type": "Feature",
            "properties": {
                "id": "95466",
                "nombre": "Portal Suba 11-3 Villa Maria",
                "tipo": "ALIMENTADOR_V"
            },
            "geometry": {
                "type": "Point",
                "coordinates": [
                    -74.09429189389765,
                    4.747389810851145
                ]
            }
        },